<?xml version="1.0" encoding="UTF-8"?>
<kml xmlns="http://earth.google.com/kml/2.2">
<Document>
<name>brasilia_stations</name>
<Style id="style1">
	<IconStyle>
		<Icon>
			<href>http://brtdata.org/img/estacao2.png</href>
		</Icon>
	</IconStyle>
</Style>
<Style id="style2">
	<IconStyle>
		<Icon>
			<href>http://brtdata.org/img/estacao1.png</href>
		</Icon>
	</IconStyle>
</Style>
<Style id="style3">
	<IconStyle>
		<Icon>
			<href>http://brtdata.org/img/terminal1.png</href>
		</Icon>
	</IconStyle>
</Style>
<Placemark>
<name>Gama</name>
<description><![CDATA[<p>Sistema: NULL</p><p>Tipo: Terminal de integração</p><p>Corredor: Expresso DF Sul</p>]]></description>
<styleUrl>#style3</styleUrl>
	<Point>
		<coordinates>-48.0498317725,-15.9922064372,0.00000</coordinates>
	</Point>
</Placemark>
<Placemark>
<name>Periquito</name>
<description><![CDATA[<p>Sistema: NULL</p><p>Tipo: Estação</p><p>Corredor: Expresso DF Sul</p>]]></description>
<styleUrl>#style1</styleUrl>
	<Point>
		<coordinates>-48.0222663203,-15.9673142766,0.00000</coordinates>
	</Point>
</Placemark>
<Placemark>
<name>CAUB II</name>
<description><![CDATA[<p>Sistema: NULL</p><p>Tipo: Estação</p><p>Corredor: Expresso DF Sul</p>]]></description>
<styleUrl>#style1</styleUrl>
	<Point>
		<coordinates>-48.0076591381,-15.9542143177,0.00000</coordinates>
	</Point>
</Placemark>
<Placemark>
<name>Santa Maria</name>
<description><![CDATA[<p>Sistema: NULL</p><p>Tipo: Terminal de integração</p><p>Corredor: Expresso DF Sul</p>]]></description>
<styleUrl>#style3</styleUrl>
	<Point>
		<coordinates>-47.986290181,-16.0023932202,0.00000</coordinates>
	</Point>
</Placemark>
<Placemark>
<name>Santos Dumont</name>
<description><![CDATA[<p>Sistema: NULL</p><p>Tipo: Estação</p><p>Corredor: Expresso DF Sul</p>]]></description>
<styleUrl>#style1</styleUrl>
	<Point>
		<coordinates>-47.986233816,-15.9925600861,0.00000</coordinates>
	</Point>
</Placemark>
<Placemark>
<name>Catetinho</name>
<description><![CDATA[<p>Sistema: NULL</p><p>Tipo: Estação</p><p>Corredor: Expresso DF Sul</p>]]></description>
<styleUrl>#style1</styleUrl>
	<Point>
		<coordinates>-47.9882723108,-15.9422647804,0.00000</coordinates>
	</Point>
</Placemark>
<Placemark>
<name>Granja do Ipê</name>
<description><![CDATA[<p>Sistema: NULL</p><p>Tipo: Estação</p><p>Corredor: Expresso DF Sul</p>]]></description>
<styleUrl>#style1</styleUrl>
	<Point>
		<coordinates>-47.9753294682,-15.9228080965,0.00000</coordinates>
	</Point>
</Placemark>
<Placemark>
<name>SPMW Q.26</name>
<description><![CDATA[<p>Sistema: NULL</p><p>Tipo: Estação</p><p>Corredor: Expresso DF Sul</p>]]></description>
<styleUrl>#style1</styleUrl>
	<Point>
		<coordinates>-47.9679639958,-15.9116783284,0.00000</coordinates>
	</Point>
</Placemark>
<Placemark>
<name>Vargem Bonita</name>
<description><![CDATA[<p>Sistema: NULL</p><p>Tipo: Estação</p><p>Corredor: Expresso DF Sul</p>]]></description>
<styleUrl>#style1</styleUrl>
	<Point>
		<coordinates>-47.9614239495,-15.8911078937,0.00000</coordinates>
	</Point>
</Placemark>
<Placemark>
<name>Park Way</name>
<description><![CDATA[<p>Sistema: NULL</p><p>Tipo: Estação</p><p>Corredor: Expresso DF Sul</p>]]></description>
<styleUrl>#style1</styleUrl>
	<Point>
		<coordinates>-47.9597494175,-15.8800607581,0.00000</coordinates>
	</Point>
</Placemark>
<Placemark>
<name>Rodoviária Plano Piloto</name>
<description><![CDATA[<p>Sistema: NULL</p><p>Tipo: Estação</p><p>Corredor: Expresso DF Sul</p>]]></description>
<styleUrl>#style1</styleUrl>
	<Point>
		<coordinates>-47.8825685864,-15.7933849711,0.00000</coordinates>
	</Point>
</Placemark>
<Placemark>
<name>NULL</name>
<description><![CDATA[<p>Sistema: NULL</p><p>Tipo: Estação</p><p>Corredor: EPTG</p>]]></description>
<styleUrl>#style1</styleUrl>
	<Point>
		<coordinates>-48.046518806,-15.8312945837,0.00000</coordinates>
	</Point>
</Placemark>
<Placemark>
<name>NULL</name>
<description><![CDATA[<p>Sistema: NULL</p><p>Tipo: Estação</p><p>Corredor: EPTG</p>]]></description>
<styleUrl>#style1</styleUrl>
	<Point>
		<coordinates>-48.0427877476,-15.8308160017,0.00000</coordinates>
	</Point>
</Placemark>
<Placemark>
<name>NULL</name>
<description><![CDATA[<p>Sistema: NULL</p><p>Tipo: Estação</p><p>Corredor: EPTG</p>]]></description>
<styleUrl>#style1</styleUrl>
	<Point>
		<coordinates>-48.0359627574,-15.8298567605,0.00000</coordinates>
	</Point>
</Placemark>
<Placemark>
<name>NULL</name>
<description><![CDATA[<p>Sistema: NULL</p><p>Tipo: Estação</p><p>Corredor: EPTG</p>]]></description>
<styleUrl>#style1</styleUrl>
	<Point>
		<coordinates>-48.029908394,-15.826704911,0.00000</coordinates>
	</Point>
</Placemark>
<Placemark>
<name>NULL</name>
<description><![CDATA[<p>Sistema: NULL</p><p>Tipo: Estação</p><p>Corredor: EPTG</p>]]></description>
<styleUrl>#style1</styleUrl>
	<Point>
		<coordinates>-48.0260748763,-15.8244202949,0.00000</coordinates>
	</Point>
</Placemark>
<Placemark>
<name>NULL</name>
<description><![CDATA[<p>Sistema: NULL</p><p>Tipo: Estação</p><p>Corredor: EPTG</p>]]></description>
<styleUrl>#style1</styleUrl>
	<Point>
		<coordinates>-48.0217756876,-15.8218323886,0.00000</coordinates>
	</Point>
</Placemark>
<Placemark>
<name>NULL</name>
<description><![CDATA[<p>Sistema: NULL</p><p>Tipo: Estação</p><p>Corredor: EPTG</p>]]></description>
<styleUrl>#style1</styleUrl>
	<Point>
		<coordinates>-48.0088523366,-15.8160015839,0.00000</coordinates>
	</Point>
</Placemark>
<Placemark>
<name>NULL</name>
<description><![CDATA[<p>Sistema: NULL</p><p>Tipo: Estação</p><p>Corredor: EPTG</p>]]></description>
<styleUrl>#style1</styleUrl>
	<Point>
		<coordinates>-48.0059779214,-15.8149562859,0.00000</coordinates>
	</Point>
</Placemark>
<Placemark>
<name>NULL</name>
<description><![CDATA[<p>Sistema: NULL</p><p>Tipo: Estação</p><p>Corredor: EPTG</p>]]></description>
<styleUrl>#style1</styleUrl>
	<Point>
		<coordinates>-47.9977835271,-15.8119634198,0.00000</coordinates>
	</Point>
</Placemark>
<Placemark>
<name>NULL</name>
<description><![CDATA[<p>Sistema: NULL</p><p>Tipo: Estação</p><p>Corredor: EPTG</p>]]></description>
<styleUrl>#style1</styleUrl>
	<Point>
		<coordinates>-47.9939040949,-15.8109060137,0.00000</coordinates>
	</Point>
</Placemark>
<Placemark>
<name>NULL</name>
<description><![CDATA[<p>Sistema: NULL</p><p>Tipo: Estação</p><p>Corredor: EPTG</p>]]></description>
<styleUrl>#style1</styleUrl>
	<Point>
		<coordinates>-47.9889136551,-15.8115142017,0.00000</coordinates>
	</Point>
</Placemark>
<Placemark>
<name>NULL</name>
<description><![CDATA[<p>Sistema: NULL</p><p>Tipo: Estação</p><p>Corredor: EPTG</p>]]></description>
<styleUrl>#style1</styleUrl>
	<Point>
		<coordinates>-47.9847867481,-15.8120641827,0.00000</coordinates>
	</Point>
</Placemark>
<Placemark>
<name>NULL</name>
<description><![CDATA[<p>Sistema: NULL</p><p>Tipo: Estação</p><p>Corredor: EPTG</p>]]></description>
<styleUrl>#style1</styleUrl>
	<Point>
		<coordinates>-47.9659719163,-15.8074325393,0.00000</coordinates>
	</Point>
</Placemark>
<Placemark>
<name>NULL</name>
<description><![CDATA[<p>Sistema: NULL</p><p>Tipo: Estação</p><p>Corredor: EPTG</p>]]></description>
<styleUrl>#style1</styleUrl>
	<Point>
		<coordinates>-47.9576886536,-15.80870921,0.00000</coordinates>
	</Point>
</Placemark>
</Document>
</kml>